{
  "de:11000:900005201": {
    "stop_id": "de:11000:900005201",
    "stop_code": "",
    "stop_name": "U Kurfürstenstr. (Berlin)",
    "stop_desc": "",
    "stop_lat": 52.499778,
    "stop_lon": 13.362857,
    "location_type": 1,
    "parent_station": "",
    "wheelchair_boarding": 0,
    "platform_code": "",
    "zone_id": "5555 U Kurfürstenstr. (Berlin)"
  },
  "de:11000:900012103": {
    "stop_id": "de:11000:900012103",
    "stop_code": "",
    "stop_name": "U Hallesches Tor (Berlin)",
    "stop_desc": "",
    "stop_lat": 52.497774,
    "stop_lon": 13.39176,
    "location_type": 1,
    "parent_station": "",
    "wheelchair_boarding": 0,
    "platform_code": "",
    "zone_id": "5555 U Hallesches Tor (Berlin)"
  },
  "de:11000:900013102": {
    "stop_id": "de:11000:900013102",
    "stop_code": "",
    "stop_name": "U Kottbusser Tor (Berlin)",
    "stop_desc": "",
    "stop_lat": 52.499047,
    "stop_lon": 13.417748,
    "location_type": 1,
    "parent_station": "",
    "wheelchair_boarding": 0,
    "platform_code": "",
    "zone_id": "5555 U Kottbusser Tor (Berlin)"
  },
  "de:11000:900013103": {
    "stop_id": "de:11000:900013103",
    "stop_code": "",
    "stop_name": "U Prinzenstr. (Berlin)",
    "stop_desc": "",
    "stop_lat": 52.498327,
    "stop_lon": 13.406551,
    "location_type": 1,
    "parent_station": "",
    "wheelchair_boarding": 0,
    "platform_code": "",
    "zone_id": "5555 U Prinzenstr. (Berlin)"
  },
  "de:11000:900014101": {
    "stop_id": "de:11000:900014101",
    "stop_code": "",
    "stop_name": "U Görlitzer Bahnhof (Berlin)",
    "stop_desc": "",
    "stop_lat": 52.499145,
    "stop_lon": 13.427145,
    "location_type": 1,
    "parent_station": "",
    "wheelchair_boarding": 0,
    "platform_code": "",
    "zone_id": "5555 U Görlitzer Bahnhof (Berlin)"
  },
  "de:11000:900014102": {
    "stop_id": "de:11000:900014102",
    "stop_code": "",
    "stop_name": "U Schlesisches Tor (Berlin)",
    "stop_desc": "",
    "stop_lat": 52.501147,
    "stop_lon": 13.441791,
    "location_type": 1,
    "parent_station": "",
    "wheelchair_boarding": 0,
    "platform_code": "",
    "zone_id": "5555 U Schlesisches Tor (Berlin)"
  },
  "de:11000:900017103": {
    "stop_id": "de:11000:900017103",
    "stop_code": "",
    "stop_name": "U Gleisdreieck (Berlin)",
    "stop_desc": "",
    "stop_lat": 52.499587,
    "stop_lon": 13.374293,
    "location_type": 1,
    "parent_station": "",
    "wheelchair_boarding": 0,
    "platform_code": "",
    "zone_id": "5555 U Gleisdreieck (Berlin)"
  },
  "de:11000:900017104": {
    "stop_id": "de:11000:900017104",
    "stop_code": "",
    "stop_name": "U Möckernbrücke (Berlin)",
    "stop_desc": "",
    "stop_lat": 52.498944,
    "stop_lon": 13.383256,
    "location_type": 1,
    "parent_station": "",
    "wheelchair_boarding": 0,
    "platform_code": "",
    "zone_id": "5555 U Möckernbrücke (Berlin)"
  },
  "de:11000:900023203": {
    "stop_id": "de:11000:900023203",
    "stop_code": "",
    "stop_name": "U Kurfürstendamm (Berlin)",
    "stop_desc": "",
    "stop_lat": 52.503763,
    "stop_lon": 13.331419,
    "location_type": 1,
    "parent_station": "",
    "wheelchair_boarding": 0,
    "platform_code": "",
    "zone_id": "5555 U Kurfürstendamm (Berlin)"
  },
  "de:11000:900023301": {
    "stop_id": "de:11000:900023301",
    "stop_code": "",
    "stop_name": "U Uhlandstr. (Berlin)",
    "stop_desc": "",
    "stop_lat": 52.502742,
    "stop_lon": 13.326233,
    "location_type": 1,
    "parent_station": "",
    "wheelchair_boarding": 0,
    "platform_code": "",
    "zone_id": "5555 U Uhlandstr. (Berlin)"
  },
  "de:11000:900056101": {
    "stop_id": "de:11000:900056101",
    "stop_code": "",
    "stop_name": "U Wittenbergplatz (Berlin)",
    "stop_desc": "",
    "stop_lat": 52.502109,
    "stop_lon": 13.342561,
    "location_type": 1,
    "parent_station": "",
    "wheelchair_boarding": 0,
    "platform_code": "",
    "zone_id": "5555 U Wittenbergplatz (Berlin)"
  },
  "de:11000:900056102": {
    "stop_id": "de:11000:900056102",
    "stop_code": "",
    "stop_name": "U Nollendorfplatz (Berlin)",
    "stop_desc": "",
    "stop_lat": 52.499644,
    "stop_lon": 13.353825,
    "location_type": 1,
    "parent_station": "",
    "wheelchair_boarding": 0,
    "platform_code": "",
    "zone_id": "5555 U Nollendorfplatz (Berlin)"
  },
  "de:11000:900120004": {
    "stop_id": "de:11000:900120004",
    "stop_code": "",
    "stop_name": "S+U Warschauer Str. (Berlin)",
    "stop_desc": "",
    "stop_lat": 52.505765,
    "stop_lon": 13.449159,
    "location_type": 1,
    "parent_station": "",
    "wheelchair_boarding": 0,
    "platform_code": "",
    "zone_id": "5555 S+U Warschauer Str. (Berlin)"
  },
  "de:11000:900120004::1": {
    "stop_id": "de:11000:900120004",
    "stop_code": "",
    "stop_name": "S+U Warschauer Str. (Berlin)",
    "stop_desc": "",
    "stop_lat": 52.505765,
    "stop_lon": 13.449159,
    "location_type": 1,
    "parent_station": "",
    "wheelchair_boarding": 0,
    "platform_code": "",
    "zone_id": "5555 S+U Warschauer Str. (Berlin)"
  },
  "de:11000:900120004::3": {
    "stop_id": "de:11000:900120004",
    "stop_code": "",
    "stop_name": "S+U Warschauer Str. (Berlin)",
    "stop_desc": "",
    "stop_lat": 52.505765,
    "stop_lon": 13.449159,
    "location_type": 1,
    "parent_station": "",
    "wheelchair_boarding": 0,
    "platform_code": "",
    "zone_id": "5555 S+U Warschauer Str. (Berlin)"
  },
  "de:11000:900014102::1": {
    "stop_id": "de:11000:900014102",
    "stop_code": "",
    "stop_name": "U Schlesisches Tor (Berlin)",
    "stop_desc": "",
    "stop_lat": 52.501147,
    "stop_lon": 13.441791,
    "location_type": 1,
    "parent_station": "",
    "wheelchair_boarding": 0,
    "platform_code": "",
    "zone_id": "5555 U Schlesisches Tor (Berlin)"
  },
  "de:11000:900014102::2": {
    "stop_id": "de:11000:900014102",
    "stop_code": "",
    "stop_name": "U Schlesisches Tor (Berlin)",
    "stop_desc": "",
    "stop_lat": 52.501147,
    "stop_lon": 13.441791,
    "location_type": 1,
    "parent_station": "",
    "wheelchair_boarding": 0,
    "platform_code": "",
    "zone_id": "5555 U Schlesisches Tor (Berlin)"
  },
  "de:11000:900014101::1": {
    "stop_id": "de:11000:900014101",
    "stop_code": "",
    "stop_name": "U Görlitzer Bahnhof (Berlin)",
    "stop_desc": "",
    "stop_lat": 52.499145,
    "stop_lon": 13.427145,
    "location_type": 1,
    "parent_station": "",
    "wheelchair_boarding": 0,
    "platform_code": "",
    "zone_id": "5555 U Görlitzer Bahnhof (Berlin)"
  },
  "de:11000:900014101::2": {
    "stop_id": "de:11000:900014101",
    "stop_code": "",
    "stop_name": "U Görlitzer Bahnhof (Berlin)",
    "stop_desc": "",
    "stop_lat": 52.499145,
    "stop_lon": 13.427145,
    "location_type": 1,
    "parent_station": "",
    "wheelchair_boarding": 0,
    "platform_code": "",
    "zone_id": "5555 U Görlitzer Bahnhof (Berlin)"
  },
  "de:11000:900013102::1": {
    "stop_id": "de:11000:900013102",
    "stop_code": "",
    "stop_name": "U Kottbusser Tor (Berlin)",
    "stop_desc": "",
    "stop_lat": 52.499047,
    "stop_lon": 13.417748,
    "location_type": 1,
    "parent_station": "",
    "wheelchair_boarding": 0,
    "platform_code": "",
    "zone_id": "5555 U Kottbusser Tor (Berlin)"
  },
  "de:11000:900013102::2": {
    "stop_id": "de:11000:900013102",
    "stop_code": "",
    "stop_name": "U Kottbusser Tor (Berlin)",
    "stop_desc": "",
    "stop_lat": 52.499047,
    "stop_lon": 13.417748,
    "location_type": 1,
    "parent_station": "",
    "wheelchair_boarding": 0,
    "platform_code": "",
    "zone_id": "5555 U Kottbusser Tor (Berlin)"
  },
  "de:11000:900013103::1": {
    "stop_id": "de:11000:900013103",
    "stop_code": "",
    "stop_name": "U Prinzenstr. (Berlin)",
    "stop_desc": "",
    "stop_lat": 52.498327,
    "stop_lon": 13.406551,
    "location_type": 1,
    "parent_station": "",
    "wheelchair_boarding": 0,
    "platform_code": "",
    "zone_id": "5555 U Prinzenstr. (Berlin)"
  },
  "de:11000:900013103::2": {
    "stop_id": "de:11000:900013103",
    "stop_code": "",
    "stop_name": "U Prinzenstr. (Berlin)",
    "stop_desc": "",
    "stop_lat": 52.498327,
    "stop_lon": 13.406551,
    "location_type": 1,
    "parent_station": "",
    "wheelchair_boarding": 0,
    "platform_code": "",
    "zone_id": "5555 U Prinzenstr. (Berlin)"
  },
  "de:11000:900012103::1": {
    "stop_id": "de:11000:900012103",
    "stop_code": "",
    "stop_name": "U Hallesches Tor (Berlin)",
    "stop_desc": "",
    "stop_lat": 52.497774,
    "stop_lon": 13.39176,
    "location_type": 1,
    "parent_station": "",
    "wheelchair_boarding": 0,
    "platform_code": "",
    "zone_id": "5555 U Hallesches Tor (Berlin)"
  },
  "de:11000:900012103::2": {
    "stop_id": "de:11000:900012103",
    "stop_code": "",
    "stop_name": "U Hallesches Tor (Berlin)",
    "stop_desc": "",
    "stop_lat": 52.497774,
    "stop_lon": 13.39176,
    "location_type": 1,
    "parent_station": "",
    "wheelchair_boarding": 0,
    "platform_code": "",
    "zone_id": "5555 U Hallesches Tor (Berlin)"
  },
  "de:11000:900017104::1": {
    "stop_id": "de:11000:900017104",
    "stop_code": "",
    "stop_name": "U Möckernbrücke (Berlin)",
    "stop_desc": "",
    "stop_lat": 52.498944,
    "stop_lon": 13.383256,
    "location_type": 1,
    "parent_station": "",
    "wheelchair_boarding": 0,
    "platform_code": "",
    "zone_id": "5555 U Möckernbrücke (Berlin)"
  },
  "de:11000:900017104::2": {
    "stop_id": "de:11000:900017104",
    "stop_code": "",
    "stop_name": "U Möckernbrücke (Berlin)",
    "stop_desc": "",
    "stop_lat": 52.498944,
    "stop_lon": 13.383256,
    "location_type": 1,
    "parent_station": "",
    "wheelchair_boarding": 0,
    "platform_code": "",
    "zone_id": "5555 U Möckernbrücke (Berlin)"
  },
  "de:11000:900017103::1": {
    "stop_id": "de:11000:900017103",
    "stop_code": "",
    "stop_name": "U Gleisdreieck (Berlin)",
    "stop_desc": "",
    "stop_lat": 52.499587,
    "stop_lon": 13.374293,
    "location_type": 1,
    "parent_station": "",
    "wheelchair_boarding": 0,
    "platform_code": "",
    "zone_id": "5555 U Gleisdreieck (Berlin)"
  },
  "de:11000:900017103::2": {
    "stop_id": "de:11000:900017103",
    "stop_code": "",
    "stop_name": "U Gleisdreieck (Berlin)",
    "stop_desc": "",
    "stop_lat": 52.499587,
    "stop_lon": 13.374293,
    "location_type": 1,
    "parent_station": "",
    "wheelchair_boarding": 0,
    "platform_code": "",
    "zone_id": "5555 U Gleisdreieck (Berlin)"
  },
  "de:11000:900005201::1": {
    "stop_id": "de:11000:900005201",
    "stop_code": "",
    "stop_name": "U Kurfürstenstr. (Berlin)",
    "stop_desc": "",
    "stop_lat": 52.499778,
    "stop_lon": 13.362857,
    "location_type": 1,
    "parent_station": "",
    "wheelchair_boarding": 0,
    "platform_code": "",
    "zone_id": "5555 U Kurfürstenstr. (Berlin)"
  },
  "de:11000:900005201::2": {
    "stop_id": "de:11000:900005201",
    "stop_code": "",
    "stop_name": "U Kurfürstenstr. (Berlin)",
    "stop_desc": "",
    "stop_lat": 52.499778,
    "stop_lon": 13.362857,
    "location_type": 1,
    "parent_station": "",
    "wheelchair_boarding": 0,
    "platform_code": "",
    "zone_id": "5555 U Kurfürstenstr. (Berlin)"
  },
  "de:11000:900056102::1": {
    "stop_id": "de:11000:900056102",
    "stop_code": "",
    "stop_name": "U Nollendorfplatz (Berlin)",
    "stop_desc": "",
    "stop_lat": 52.499644,
    "stop_lon": 13.353825,
    "location_type": 1,
    "parent_station": "",
    "wheelchair_boarding": 0,
    "platform_code": "",
    "zone_id": "5555 U Nollendorfplatz (Berlin)"
  },
  "de:11000:900056102::2": {
    "stop_id": "de:11000:900056102",
    "stop_code": "",
    "stop_name": "U Nollendorfplatz (Berlin)",
    "stop_desc": "",
    "stop_lat": 52.499644,
    "stop_lon": 13.353825,
    "location_type": 1,
    "parent_station": "",
    "wheelchair_boarding": 0,
    "platform_code": "",
    "zone_id": "5555 U Nollendorfplatz (Berlin)"
  },
  "de:11000:900056101::1": {
    "stop_id": "de:11000:900056101",
    "stop_code": "",
    "stop_name": "U Wittenbergplatz (Berlin)",
    "stop_desc": "",
    "stop_lat": 52.502109,
    "stop_lon": 13.342561,
    "location_type": 1,
    "parent_station": "",
    "wheelchair_boarding": 0,
    "platform_code": "",
    "zone_id": "5555 U Wittenbergplatz (Berlin)"
  },
  "de:11000:900056101::5": {
    "stop_id": "de:11000:900056101",
    "stop_code": "",
    "stop_name": "U Wittenbergplatz (Berlin)",
    "stop_desc": "",
    "stop_lat": 52.502109,
    "stop_lon": 13.342561,
    "location_type": 1,
    "parent_station": "",
    "wheelchair_boarding": 0,
    "platform_code": "",
    "zone_id": "5555 U Wittenbergplatz (Berlin)"
  },
  "de:11000:900023203::1": {
    "stop_id": "de:11000:900023203",
    "stop_code": "",
    "stop_name": "U Kurfürstendamm (Berlin)",
    "stop_desc": "",
    "stop_lat": 52.503763,
    "stop_lon": 13.331419,
    "location_type": 1,
    "parent_station": "",
    "wheelchair_boarding": 0,
    "platform_code": "",
    "zone_id": "5555 U Kurfürstendamm (Berlin)"
  },
  "de:11000:900023203::2": {
    "stop_id": "de:11000:900023203",
    "stop_code": "",
    "stop_name": "U Kurfürstendamm (Berlin)",
    "stop_desc": "",
    "stop_lat": 52.503763,
    "stop_lon": 13.331419,
    "location_type": 1,
    "parent_station": "",
    "wheelchair_boarding": 0,
    "platform_code": "",
    "zone_id": "5555 U Kurfürstendamm (Berlin)"
  },
  "000300106001": {
    "stop_id": "de:11000:900023301",
    "stop_code": "",
    "stop_name": "U Uhlandstr. (Berlin)",
    "stop_desc": "",
    "stop_lat": 52.502742,
    "stop_lon": 13.326233,
    "location_type": 1,
    "parent_station": "",
    "wheelchair_boarding": 0,
    "platform_code": "",
    "zone_id": "5555 U Uhlandstr. (Berlin)"
  }
}
